Dist_Name,Percent_Flooded_Area,Parmanent_Water,Corrected_Percent_Flooded_Area,Latitude,Longitude,Rainfall (mm/hr)
Dadra & Nagar Haveli,3.614704922,0.645537217,2.969167705,20.2843987,73.0994281595378,1.3410407007086178e-07
Daman,2.853534384,1.308995942,1.544538442,20.4169701,72.833173,77.27196502685547
Diu,5.79981831,4.979981831,0.819836479,20.718174949999998,70.93238341010638,-7.909481480185709e+18
North  & Middle Andaman,1.3148171,0.0,1.3148171,12.61123865,92.83165406414926,1.096494248336672e+34
South Andaman,1.443452407,0.0,1.443452407,10.7056905,92.48746789633373,-1.891279483414766e+34
Nicobars,0.090612489,0.0,0.090612489,,,
Srikakulam,4.01307877,0.566374643,3.446704127,18.622438000000002,84.14437640941347,1.6227772903221194e-08
Vizianagaram,1.110588388,0.320586402,0.790001986,18.1139259,83.3979562,-160074504863744.0
Visakhapatnam,1.175590784,0.439675977,0.735914807,17.7231276,83.3012842,75360768.0
Krishna,4.604283716,3.894573341,0.709710375,16.21277,81.03069575082347,2.5452363510062e+21
Guntur,10.2423074,0.999528068,9.242779332,16.2915189,80.4541588,-1.0613853017485864e+23
East Godavari,6.191781457,2.48908494,3.702696517,16.99566385,81.71543778889063,6.171613848951325e-26
Prakasam,1.152408401,0.273749091,0.87865931,15.66426435,79.47330014039173,0.3048420250415802
Kurnool,0.793739864,0.504632198,0.289107666,15.8309251,78.0425373,
Anantapur,0.698641838,0.216018195,0.482623643,14.72421995,77.43067380798242,-3.079760117994861e-33
Sri Potti Sriramulu Nell*,4.296954395,3.608219113,0.688735282,,,
West Godavari,5.603589524,2.064339191,3.539250333,16.64430285,81.58852467942901,0.0017688050866127
Y.S.R.,1.141752714,1.095797136,0.045955578,18.0804778,-77.8404683,0.0
Chittoor,0.573483172,0.068957975,0.504525197,13.2161224,79.0972819,-1811.195556640625
Upper Subansiri,1.234996868,0.078758779,1.156238089,28.3,94.0,9.34555539843278e+20
Anjaw,1.599292296,0.251543379,1.347748917,28.1114301,96.82699963398373,-2.90768801496519e-31
Changlang,2.538486995,0.021259348,2.517227647,27.272007000000002,96.06552596101915,8.419837332589218e+36
Tawang,1.104117118,0.227751689,0.876365429,27.5879186,91.863733,-4.517572031175288e+30
Papum Pare,0.846868747,0.021507801,0.825360946,27.286366649999998,93.61877159710389,2.067859989143828e-12
Tirap,0.650808941,0.020888139,0.629920802,27.03016895,95.49791754505583,2.0949544324231047e-37
East Siang,3.916385666,1.35629866,2.560087006,28.3,95.15,-1.3191037775010254e-26
Lohit,2.719050727,0.57149925,2.147551477,28.035016149999997,96.17135154220676,-1730502587318272.0
Kurung Kumey,0.581168345,0.025194178,0.555974167,27.98636765,93.15783468644102,-5.620485546476654e-33
Lower Subansiri,0.836132857,0.006756278,0.829376579,27.8,93.6,2.067859989143828e-12
East Kameng,1.388336152,0.061410827,1.326925325,27.3,93.05,8.289265073365856e-28
West Kameng,1.93207052,0.043990415,1.888080105,27.33862695,92.43336623881613,-3.604893936426379e-05
Kra Daadi,1.846265574,0.008415915,1.837849659,27.96354175,93.76656538768381,-4.450523006090369e-22
Namsai,4.082402322,0.299110207,3.783292115,27.71403055,96.01597093953018,8.419837332589218e+36
Longding,0.638916752,0.0,0.638916752,26.879454600000003,95.3155652456941,-1.3191037775010254e-26
Upper Siang,2.722491305,0.336009842,2.386481463,28.73120455,95.03773151350946,-4.407596213969854e+23
Lower Siang,2.214148435,0.042159747,2.171988688,27.80069825,94.56502334121075,-3.7866876740702584e-18
Upper Dibang Valley,1.084032399,0.372682252,0.711350147,28.8291044,95.95540957636018,8.419837332589218e+36
Lower Dibang Valley,1.560368914,0.162468901,1.397900013,28.21495625,95.87877403567019,8.419837332589218e+36
Siang,2.518308001,0.498407734,2.019900267,28.477491999999998,94.81655728795752,-0.000172254643985
Shi Yomi,0.730870815,0.051292052,0.679578763,28.68516625,94.23678241115617,-1.9688786135553788e-25
Pakke Kessang,1.745384121,0.023431627,1.721952494,27.156424100000002,93.20618864900129,-5.620485546476654e-33
West Siang,0.744207577,0.123427923,0.620779654,28.4,94.55,-3.7866876740702584e-18
Lepa Rada,0.870628148,0.0,0.870628148,27.9211266,94.74093620019156,-0.000172254643985
Kamle,2.140222737,0.304270955,1.835951782,27.7312325,94.0964663257624,9.34555539843278e+20
Tinsukia,6.140689939,1.259207522,4.881482417,27.4879722,95.3601855,-1.3191037775010254e-26
Dhemaji,10.8217802,1.436232391,9.385547809,27.466831499999998,94.51786508708852,-3.7866876740702584e-18
Dibrugarh,14.95295738,3.039084044,11.91387334,27.4844597,94.9019447,-4.407596213969854e+23
Lakhimpur,15.4979388,1.049242136,14.44869666,27.17633555,94.19929317390199,-1.9688786135553788e-25
Sivasagar,17.15000888,0.611686093,16.53832279,26.9834936,94.6394226,-0.000172254643985
Jorhat,7.736947443,1.082349707,6.654597736,26.7577925,94.2079645,-1.9688786135553788e-25
Sonitpur,7.745899654,2.549489328,5.196410326,26.767770749999997,92.70140885850532,-2.040808682386497e+33
Golaghat,13.18454925,1.593594635,11.59095462,26.5108262,93.9743686,9.34555539843278e+20
Udalguri,3.138974031,0.003282254,3.135691777,26.70472375,92.04215071409463,2.4143216702833133e+26
Chirang,2.875769392,0.021873585,2.853895807,26.6464231,90.62415698729875,-9.998692576118628e-07
Baksa,3.829965692,0.097900998,3.732064694,45.9595045,18.0950419,9.94880733351522e-10
Nagaon,13.62634202,0.20685283,13.41948919,26.3313646,92.75247628339588,-2.040808682386497e+33
Kokrajhar,2.564133007,0.046972576,2.517160431,26.46817205,90.42434746451536,-9.998692576118628e-07
Darrang,15.62408864,3.822695958,11.80139268,26.75,92.5,-3.604893936426379e-05
Barpeta,13.96647843,3.478605956,10.48787247,26.34142215,91.01674328474073,-1.7603332397730414e-20
Nalbari,8.823179287,2.234621552,6.588557735,26.42386165,91.45122754621168,8.849534659254493e-32
Morigaon,15.71118817,2.221938191,13.48924998,26.24860605,92.3387945,-1.4108982038241178e-10
Kamrup,10.03897902,1.476174408,8.562804612,26.14688605,91.22273972821812,249108.984375
Bongaigaon,11.75738514,3.469432123,8.287953017,26.4800126,90.5580387,-9.998692576118628e-07
Dhubri,11.79092943,2.559481456,9.231447974,26.01894625,89.94188952461522,-7.910227816585391e-38
Kamrup Metropolitan,14.80454405,1.622970103,13.18157395,26.13526375,91.86167062524618,-4.517572031175288e+30
Goalpara,15.877175,3.270135105,12.6070399,26.04918765,90.60018585947726,-9.998692576118628e-07
Dima Hasao,1.849797408,0.192925704,1.656871704,25.400362549999997,93.07522922678905,8.289265073365856e-28
Cachar,9.573358688,0.339758463,9.233600225,24.758639950000003,92.88166475768219,0.0
Karimganj,22.54591712,0.019195636,22.52672148,24.8647214,92.3681114,0.0
Hailakandi,17.39218508,0.052376525,17.33980856,24.68845365,92.57381528240943,0.0
Charaideo,16.05397104,0.010879162,16.04309188,27.06971635,95.06426298389661,-4.407596213969854e+23
Majuli,13.12975694,4.888294451,8.241462489,27.021952849999998,94.32742302965544,-1.9688786135553788e-25
Biswanath,5.175865068,2.020191719,3.155673349,26.7773957,93.25694367444689,-5.620485546476654e-33
Hojai,5.264427439,0.109771283,5.154656156,26.009390850000003,92.84879014262606,-2.040808682386497e+33
South Salmara Mancachar,28.02392571,10.81288284,17.21104287,,,
Karbi Anglong,1.843407844,0.000151248,1.843256596,26.0,93.5,2.067859989143828e-12
West Karbi Anglong,3.225931636,0.096610327,3.129321309,25.85291415,92.58756812404593,-3.604893936426379e-05
Pashchim Champaran,6.581510908,0.22060865,6.360902258,27.0,84.5,412193128448.0
Purba Champaran,9.508604013,0.12116348,9.387440533,26.583333,84.833333,-3.675459450888785e+31
Sitamarhi,4.621194206,0.001510558,4.619683648,26.5942841,85.500428,1.211850205369433e+34
Sheohar,9.002316572,0.0,9.002316572,26.49342335,85.27175608137802,3.80085048603498e-23
Gopalganj,5.900053501,0.432458286,5.467595215,26.42111655,84.37391327996377,-2.6118993448501515e+28
Samastipur,14.7707354,0.395790839,14.37494456,25.77478845,85.867231389952,-3226812416.0
Katihar,13.34677951,1.934686307,11.4120932,25.5586421,87.64571962485962,0.0192528944462537
Khagaria,12.48011269,0.872843213,11.60726948,25.4930513,86.69822644137813,-9.772215933753058e-30
Bhojpur,6.197224303,0.810391565,5.386832738,25.25,84.25,-2.6118993448501515e+28
Buxar,5.8158623,0.526160857,5.289701443,25.5716195,83.9729568,964643782656.0
Darbhanga,10.08119281,0.024744941,10.05644787,26.082989949999998,86.03249509324232,5.581713935498556e-07
Saharsa,8.841447371,0.644150281,8.19729709,25.83307565,86.61437508111757,3.1585921260122703e+35
Kaimur (bhabua),2.869921368,0.262638721,2.607282647,25.07634815,83.63359775892343,-4.4098271234940825e-25
Rohtas,4.672962273,0.800130744,3.872831529,24.93941425,84.01970311897313,3627792.0
Jamui,0.5711396,0.157890825,0.413248775,24.9669183,86.17404181759059,-4.603070277369367e-23
Banka,2.03422427,0.348262775,1.685961495,43.1278266,-1.3728388,-550883456.0
Nawada,1.840779083,0.079535975,1.761243108,24.817324900000003,85.51790846584018,2.0536309486831662e-30
Gaya,3.47076538,0.000225598,3.470539782,24.7964355,85.0079563,-2.571390857539083e-17
Munger,15.77841256,2.040092021,13.73832054,25.2202864,86.51614835791698,3.1585921260122703e+35
Vaishali,17.98113124,1.112916504,16.86821474,25.954423650000003,85.14486678662564,3.80085048603498e-23
Begusarai,21.87259266,1.072873296,20.79971936,25.5125411,86.08833919362361,5.581713935498556e-07
Bhagalpur,16.20260487,2.47274559,13.72985928,25.286135350000002,87.13042293057262,-240600829919232.0
Lakhisarai,12.2823616,0.192831525,12.08953008,25.1677639,86.0593915399368,2.1269640122466304e+16
Sheikhpura,3.509671673,0.004092988,3.505578685,25.1250741,85.81607708105014,3.1567669072183483e+35
Arwal,22.2718737,0.595563792,21.67630991,25.18128315,84.65966477186029,-3.675459450888785e+31
Jehanabad,10.28041514,0.001189369,10.27922577,25.15295785,85.00650426458421,-2.571390857539083e-17
Nalanda,17.26579914,0.017069197,17.24872994,25.1364914,85.44365464855682,2.0536309486831662e-30
Patna,20.26981192,1.449192516,18.8206194,25.6093239,85.1235252,103553695744.0
Saran,13.6847545,1.299936265,12.38481824,25.9214451,84.77597313027485,-3.675459450888785e+31
Siwan,6.753345435,0.145588085,6.60775735,26.131008,84.39107448141786,412193128448.0
Muzaffarpur,11.95012947,0.19126057,11.7588689,26.1482548,85.3316096785584,3.80085048603498e-23
Madhepura,3.91579591,0.008027921,3.907767989,25.9259562,86.82042961035677,-9.772215933753058e-30
Araria,6.399493143,0.0,6.399493143,26.26510125,87.36994367279917,-240600829919232.0
Supaul,7.982821848,0.634587242,7.348234606,26.2768089,86.79596143977405,-9.772215933753058e-30
Madhubani,3.784620529,0.037751436,3.746869093,26.3503076,86.22964236520482,-7.3791947154682e-34
Purnia,6.353941784,0.033127573,6.320814211,26.0,87.5,3.0552909091596803e-09
Kishanganj,9.339752372,0.190724422,9.14902795,26.29841435,87.94667148301295,-184461.0
Aurangabad,2.741713494,0.192197924,2.54951557,24.75,84.5,1.8178185420730196e+22
Chandigarh,0.001739235,0.000745464,0.000993771,30.7334421,76.7797143,0.0
Mahasamund,0.960933082,0.333392516,0.627540566,21.19228455,82.48902633077708,5.7708517967671226e-21
Uttar Bastar Kanker,0.836672614,0.106473076,0.730199538,20.12868925,80.98453000491365,2.5452363510062e+21
Narayanpur,0.591873275,0.019401894,0.572471381,25.36679325,86.87262364091137,-9.772215933753058e-30
Dakshin Bastar Dantewada,1.73160173,0.05840241,1.67319932,,,
Bastar,1.887109361,0.254405482,1.632703879,19.11912825,81.82918648971713,6.171613848951325e-26
Kondagaon,1.123981488,0.045498909,1.078482579,19.5885769,81.6628742,6.171613848951325e-26
Gariaband,0.872452961,0.366717302,0.505735659,20.42921465,82.25255842887256,1.4220555628073452e+18
Raipur,1.037598285,0.445146211,0.592452074,21.2380912,81.6336993,6.171613848951325e-26
Durg,1.029480865,0.598727155,0.43075371,21.1982964,81.40079215767969,0.0017688050866127
Dhamtari,1.523869436,1.570806706,0.04693727,20.7084545,81.5481305,0.0017688050866127
Balod,0.692282824,0.717205888,0.024923064,20.7277192,81.1446947513626,-6.3593282317293215e-27
Koriya,0.581343442,0.102575658,0.478767784,23.476253999999997,82.47763736795142,5.7708517967671226e-21
Jashpur,0.612002702,0.04317362,0.568829082,22.770251000000002,83.97080132252168,3627792.0
Korba,1.961395836,1.651028381,0.310367455,22.5198217,82.63500285150224,106.43994140625
Kabeerdham,0.818669924,0.253989706,0.564680218,,,
Janjgir - Champa,2.305607554,0.376710728,1.928896826,21.986403,82.55366063452159,5.7708517967671226e-21
Bametara,2.704068243,0.320047689,2.384020554,,,
Rajnandgaon,0.602269912,0.353818517,0.248451395,21.06844245,80.797077941564,0.0980706214904785
Surajpur,1.420793586,0.200734056,1.22005953,23.357776899999998,82.97612766699449,3.880944440200257e-31
Baloda Bazar,3.669338228,0.368934666,3.300403562,21.573184750000003,82.2994820805541,1.4220555628073452e+18
Mungeli,2.354397777,0.519156343,1.835241434,22.0661098,81.6874282,6.171613848951325e-26
Surguja,0.479102379,0.278929567,0.200172812,22.94691345,83.1656942260687,75360768.0
Balrampur,0.665330167,0.022677673,0.642652494,23.628257599999998,83.48109161894322,-160074504863744.0
Bijapur,2.067319021,0.119061839,1.948257182,16.8269911,75.7175387,-3.390494220808386e+26
Raigarh,1.171171998,0.340147342,0.831024656,21.897618,83.3965501,-160074504863744.0
Bilaspur,1.199971728,0.445297237,0.754674491,28.868311,79.29807496695935,-1.7167601433325241e-13
Sukma,1.578192343,0.11146237,1.466729973,18.26654225,81.29252341475065,-6.3593282317293215e-27
North,1.725427554,0.0,1.725427554,13.4526455,-2.227736,0.0
North East,1.464774777,0.0,1.464774777,19.5178468,-71.8728225,0.0
West,5.312905892,0.0,5.312905892,5.5211184,10.6528684,0.0
East ,0.1,0.0,0.1,12.2527495,0.8736106,0.0
South West,3.339650881,0.0,3.339650881,5.3356587,100.2389496,-0.1316270977258682
Central,7.250541685,0.0,7.250541685,14.6446934,121.0504257,0.0
New Delhi,0.014199219,0.0,0.014199219,28.6138954,77.2090057,8.986377360997722e-05
South,0.006747594,0.0,0.006747594,18.2612839,-73.8444985,0.0
Shahdara,0.1,0.0,0.1,28.6734298,77.2898858,8.986377360997722e-05
South East,0.675204493,0.045915107,0.629289386,-24.62994925,26.045475779882622,0.0
North West,0.1,0.0,0.1,-19.3893529,23.267951,0.0
North Goa,4.159637042,2.577757251,1.581879791,15.60444125,74.00172406307475,-2.3243784482778355e-34
South Goa,2.764330826,0.971762276,1.79256855,15.219624,74.1159084575026,-2.3243784482778355e-34
Valsad,2.551668353,0.812747791,1.738920562,20.43219565,73.14098929730321,1418728.0
Amreli,0.551647653,0.455725673,0.09592198,21.4176122,71.24960898982046,0.0
The Dangs,2.171927273,0.007193835,2.164733438,20.75,73.75,5.9106912244656754e-33
Banas Kantha,0.684661264,0.116877662,0.567783602,24.25,72.5,1.7521200199337247e+18
Patan,2.72529709,0.128901094,2.596395996,23.773753,71.67985812598445,0.0
Mahesana,0.776246826,0.08453985,0.691706976,23.6015557,72.3867981,1.7521200199337247e+18
Gandhinagar,1.280221069,0.000328815,1.279892254,23.2232877,72.6492267,77.27196502685547
Ahmadabad,4.222292965,0.122458085,4.09983488,23.0215374,72.5800568,1.7521200199337247e+18
Panch Mahals,0.963141904,0.574815885,0.388326019,23.0,74.0,-2.3243784482778355e-34
Dohad,0.331645594,0.201923678,0.129721916,21.8043963,75.93757821990236,5.692504172424093e+23
Vadodara,3.328415211,0.284762754,3.043652457,22.2973142,73.1942567,1418728.0
Bharuch,3.432850261,1.612396534,1.820453727,21.82728385,72.89284864362733,1.3410407007086178e-07
Porbandar,5.378579118,0.51266173,4.865917388,21.6409,69.611,0.0
Narmada,5.679248253,2.564251605,3.114996648,21.73926245,73.6262457912427,5.9106912244656754e-33
Surat,5.928437334,0.593664003,5.334773331,45.9383,3.2553,4.474977486327503e+24
Tapi,3.084521179,2.984765412,0.099755767,21.1916567,73.55606306168934,2.014569460056309e+31
Aravalli,1.017301706,0.334042991,0.683258715,23.48432165,73.3986095810327,2.014569460056309e+31
Botad,0.962947549,0.085839662,0.877107887,22.046709749999998,71.66896169930108,0.0
Chota Udaipur,0.859683354,0.747200646,0.112482708,22.3148736,74.0141067,-2.3243784482778355e-34
Mahisagar,2.501932587,1.803625613,0.698306974,23.19121945,73.6644398400249,5.9106912244656754e-33
Gir Somnath,0.779801587,0.532788711,0.247012876,20.9298181,70.76275783253665,-1.668672036485297e-12
Sabar Kantha,0.981927574,0.655214573,0.326713001,23.5,73.25,1418728.0
Kachchh,12.67467755,9.585998161,3.088679389,23.583333,70.0,-0.470552384853363
Surendranagar,1.286502045,0.14688655,1.139615495,22.75,71.666667,0.0
Rajkot,0.801285355,0.493588848,0.307696507,22.3053263,70.8028377,-1.668672036485297e-12
Kheda,2.857113599,0.01148306,2.845630539,22.75,72.833333,77.27196502685547
Anand,5.640448142,0.236729361,5.403718781,22.5586555,72.9627227,1.3410407007086178e-07
Bhavnagar,1.164791431,1.145481372,0.019310059,21.7718836,72.1416449,8.579400583411139e+17
Junagadh,1.288798667,0.096341257,1.19245741,21.5174104,70.4642754,-94784.5
Jamnagar,0.665233515,0.663125755,0.00210776,22.4732415,70.0552102,-0.470552384853363
Devbhumi Dwarka,0.632384691,0.65675835,0.024373659,22.2467737,68.96804164359938,0.0
Morbi,0.897578925,1.089593543,0.192014618,22.8176662,70.8345928,-1.668672036485297e-12
Navsari,2.899986996,0.636447966,2.26353903,20.952407,72.9323831,1.3410407007086178e-07
Jhajjar,1.433630243,0.004170675,1.429459568,28.53364155,76.68981477716189,0.0
Gurugram,1.190106782,0.025213178,1.164893604,28.4646148,77.0299194,-2.3812975640578862e-20
Faridabad,6.911149485,0.0,6.911149485,28.4031478,77.3105561,8.986377360997722e-05
Mahendragarh,0.562223928,0.000562973,0.561660955,28.25,76.166667,3.455123826438549e+34
Rewari,0.830835644,0.002779906,0.828055738,28.1956468,76.6165179,0.0
Nuh,0.669910248,0.0,0.669910248,27.99351765,77.04196338756515,-2.3812975640578862e-20
Palwal,1.788990887,0.0,1.788990887,28.1405741,77.3259802,8.986377360997722e-05
Charki Dadri,0.854921696,0.002355435,0.852566261,,,
Yamunanagar,5.773638579,0.042011596,5.731626983,30.1231349,77.286329,8.986377360997722e-05
Kurukshetra,5.505038063,0.003818992,5.501219071,29.9693747,76.8482787,0.0
Kaithal,3.116757085,0.00046637,3.116290715,29.82231125,76.3790553562613,0.0
Sirsa,9.796778385,0.001758909,9.795019476,29.583333,75.083333,0.0
Karnal,3.351988487,0.003219511,3.348768976,29.6803266,76.9896254,-2.3812975640578862e-20
Jind,1.133905451,0.0,1.133905451,29.30219685,76.33894452216312,3.455123826438549e+34
Fatehabad,9.544000142,0.0,9.544000142,27.02766825,78.2074341134146,2.0084641505491166e-07
Hisar,4.240875674,0.000529024,4.24034665,29.080640950000003,75.788754109493,6.917143821716309
Panipat,1.825319296,0.0,1.825319296,29.3912753,76.9771675,-2.3812975640578862e-20
Sonipat,0.905127272,0.0,0.905127272,28.9953758,77.0233627,-2.3812975640578862e-20
Bhiwani,2.188213606,0.000980524,2.187233082,28.7931703,76.1391283,3.455123826438549e+34
Rohtak,1.003708527,0.003867208,0.999841319,28.9010899,76.5801935,0.0
Panchkula,0.322349702,0.040273471,0.282076231,30.6975401,76.8551066,0.0
Ambala,4.251029067,0.0,4.251029067,30.3843674,76.770421,0.0
Lahul & Spiti,0.310107104,0.321979852,0.011872748,32.539182499999995,77.19833433579925,8.986377360997722e-05
Chamba,0.400300346,0.191863584,0.208436762,32.518429,76.23086565661742,3.455123826438549e+34
Kangra,1.044453548,0.966952237,0.077501311,32.166667,76.25,3.455123826438549e+34
Kullu,0.26843604,0.052025107,0.216410933,32.00186325,77.37899639741332,-3.299250636613595e+35
Mandi,0.910437082,0.174020686,0.736416396,31.7084496,76.9293782,-2.3812975640578862e-20
Kinnaur,0.710681995,0.171089112,0.539592883,31.593012950000002,78.32814168568953,2.0084641505491166e-07
Una,0.647137511,0.628882095,0.018255416,-15.2936233,-39.0740884,-1.1388425839004423e-32
Shimla,0.771392749,0.035574686,0.735818063,31.1041526,77.1709729,8.986377360997722e-05
Solan,0.404819031,0.124151886,0.280667145,30.9077569,77.1023645,-2.3812975640578862e-20
Sirmaur,1.011405104,0.033540578,0.977864526,30.6991321,77.44653038810971,-3.299250636613595e+35
Hamirpur,0.722347337,0.097059815,0.625287522,25.75,80.0,0.0
Bilaspur,6.380614515,4.196110632,2.184503883,28.868311,79.29807496695935,-1.7167601433325241e-13
Kupwara,0.534056594,0.014099434,0.51995716,34.5266079,74.2567173,-2.621343344340428e-37
Bandipore,2.552861234,0.616409408,1.936451826,34.4563234,74.68249997667994,0.0
Baramula,1.128824654,0.217682121,0.911142533,34.2086903,74.343498,-2.621343344340428e-37
Ganderbal,1.994547665,0.499016366,1.495531299,34.192763049999996,74.77001573026513,0.0
Anantnag,0.462302357,0.159500867,0.30280149,33.7368773,75.1455138,0.0
Kishtwar,0.405119324,0.12316298,0.281956344,33.2761171,75.8169238781403,6.917143821716309
Srinagar,1.003599347,0.724666434,0.278932913,34.0747444,74.8204443,0.0
Badgam,3.988476641,0.182326085,3.806150556,34.0366398,74.72254286484204,0.0
Pulwama,3.270901569,0.279219117,2.991682452,33.8756947,74.9003129,0.0
Punch,0.738012141,0.059684491,0.67832765,33.7670004,74.0957143,-1.8373675966385443e-27
Shupiyan,1.082625131,0.002022763,1.080602368,,,
Kulgam,0.367091191,0.344100009,0.022991182,33.6446899,75.0188432,0.0
Rajouri,0.301855404,0.017946919,0.283908485,33.26636775,74.34384695789798,-2.621343344340428e-37
Ramban,0.754358554,0.309949623,0.444408931,33.2387042,75.2404448,0.0
Reasi,1.749523708,0.510462262,1.239061446,33.069103150000004,74.8378698208889,0.0
Doda,0.541398151,0.270867996,0.270530155,33.1774307,75.56752281893789,0.0
Jammu,2.064462057,0.475037449,1.589424608,32.7185614,74.8580917,0.0
Kathua,1.038752523,0.993134601,0.045617922,32.583333,75.5,0.0
Udhampur,0.487802833,0.013526323,0.47427651,33.0,75.166667,0.0
Samba,0.669356657,0.039351707,0.63000495,32.57591175,75.12034455530063,0.0
Muzaffarabad,0.705240174,0.275433011,0.429807163,34.3767316,73.4767389,0.0
Mirpur,2.033481738,1.696173528,0.33730821,33.1486351,73.7482102,-1.0671091055125557e-18
Sahibganj,8.050315684,2.307096524,5.74321916,25.244263,87.6348084,0.0192528944462537
Godda,0.351053647,0.042063828,0.308989819,24.74334305,87.2928506179686,1.1636688041846184e-32
Pakur,3.841519374,0.015471341,3.826048033,24.53259085,87.59323197586771,-3.5202700754410902e-09
Giridih,0.488850861,0.045970652,0.442880209,24.1608897,86.25113503301655,-4.603070277369367e-23
Dumka,0.826039058,0.598250003,0.227789055,24.2538512,87.30064714192224,1.1636688041846184e-32
Deoghar,0.900022929,0.088257849,0.81176508,24.4766423,86.60673245386945,-4.5843328929534057e-17
Palamu,1.260455563,0.197368643,1.06308692,24.22129825,84.17255645743987,1.6227772903221194e-08
Chatra,0.37639693,0.036811514,0.339585416,24.20162495,84.87817691941733,-2.571390857539083e-17
Garhwa,0.838209479,0.290692695,0.547516784,24.15529035,83.82522584408349,-4.4098271234940825e-25
Jamtara,1.614168247,0.953600878,0.660567369,23.9630448,86.8027604,1.4738099049802498e+19
Dhanbad,1.331577575,1.123698027,0.207879548,23.7952809,86.4309638,-4.5843328929534057e-17
Latehar,0.573164859,0.027933586,0.545231273,23.6880057,84.49695511086065,1.8178185420730196e+22
Bokaro,1.369848729,1.347818433,0.022030296,23.699127949999998,85.99106894165021,2.1269640122466304e+16
Ramgarh,0.955188073,0.516207464,0.438980609,25.30401285,83.68084424934261,8.329815801056609e-24
Ranchi,0.833116849,0.368094084,0.465022765,23.3700501,85.3250387,-4.409197949424523e-38
Lohardaga,0.868753763,0.077224984,0.791528779,23.46920055,84.73568423071751,-2.378722510183617e+20
Gumla,0.738034735,0.061045269,0.676989466,23.0916741,84.5738480719802,1.8178185420730196e+22
Khunti,0.760830841,0.025055895,0.735774946,23.10018105,85.3454593617985,-4.409197949424523e-38
Saraikela-kharsawan,1.982457722,1.685259625,0.297198097,22.7464225,85.91689291046393,2.1269640122466304e+16
Purbi Singhbhum,1.736697053,0.089703785,1.646993268,,,
Pashchimi Singhbhum,0.910148694,0.04196336,0.868185334,,,
Simdega,1.054648305,0.125948542,0.928699763,22.6664325,84.5502679119221,1.8178185420730196e+22
Kodarma,0.4952359,0.493650006,0.001585894,24.54238015,85.69300996279287,3.1567669072183483e+35
Hazaribagh,0.550169328,0.473117617,0.077051711,23.9675151,85.43884568595615,2.0536309486831662e-30
Bidar,1.344650341,0.577171919,0.767478422,18.02072965,77.24872035766641,-3.371811127790618e-22
Kalaburagi,1.1108725,0.548079914,0.562792586,17.240895700000003,76.76974392025645,-1.508584777088212e+32
Belagavi,1.274110942,0.55806105,0.716049892,16.15878455,74.88886197026468,10802984648704.0
Yadgir,1.651730783,0.57450138,1.077229403,16.57441225,76.92544344576471,-5.130314093548805e-07
Bagalkote,1.462562203,1.460163536,0.002398667,16.2903648,75.5915819092485,6.368714040664707e-30
Raichur,1.42584206,0.565825072,0.860016988,16.054719400000003,76.90036472411589,-5.130314093548805e-07
Koppal,1.056602421,0.555929835,0.500672586,15.57482375,76.3118493692591,4.268984956626351e+20
Gadag,0.935237691,0.161614128,0.773623563,15.41669195,75.6815801296564,-3.390494220808386e+26
Ballari,1.132672375,0.584051989,0.548620386,15.2485413,76.8323648,-1.508584777088212e+32
Dharwad,0.419364228,0.136242811,0.283121417,15.3707296,75.13328673460543,5.491409652337328e+31
Uttara Kannada,4.074727101,1.655079328,2.419647773,14.72537945,74.64033891105888,-3.248972346124737e-30
Haveri,1.243636673,0.202049296,1.041587377,14.7874825,75.3996731,-1.203119033774667e-15
Chitradurga,0.426895091,0.23997582,0.186919271,14.3049174,76.52972341987515,-0.0003396962420083
Davanagere,0.757147753,0.419899366,0.337248387,14.2558835,75.83034209165376,-3.2684483528137207
Shivamogga,1.276369106,1.203198506,0.0731706,14.05565025,75.23805528480658,191930310852608.0
Udupi,0.74927375,0.741689148,0.007584602,13.5269784,74.87318787345797,-3.248972346124737e-30
Chikkamagaluru,1.355001002,0.868566012,0.48643499,13.5,75.5,-1.203119033774667e-15
Chikkaballapura,0.292140809,0.110670649,0.18147016,13.58979405,77.77879300876289,1.9539304896287743e-10
Hassan,0.65942209,0.611212696,0.048209394,13.030185249999999,76.17449676658171,-1.0949436087538108e+30
Kolar,0.261632224,0.109739276,0.151892948,13.18050655,78.26693288646007,-1.6477638031109233e+34
Bengaluru Rural,0.192307509,0.071765205,0.120542304,13.1826245,77.33956812783698,1.088994361920267e+35
Dakshina Kannada,1.44861205,0.422123179,1.026488871,12.82264335,75.22650362528617,191930310852608.0
Bangalore,0.342520348,0.227953363,0.114566985,12.9767936,77.590082,-3.079760117994861e-33
Kodagu,0.795547476,0.154509876,0.6410376,12.3827332,75.66407145094288,-3.2684483528137207
Chamarajanagara,2.083532915,0.145853665,1.93767925,11.9238058,76.9393558,-2.273170714162109e-11
Tumakuru,0.340404409,0.284595715,0.055808694,13.4192512,76.88100044465654,-2.273170714162109e-11
Ramanagara,1.21544654,0.259579863,0.955866677,12.720005950000001,77.31841990623,1.088994361920267e+35
Mandya,2.146957544,0.730831983,1.416125561,12.5238888,76.8961961,-2.273170714162109e-11
Mysuru,1.66900183,1.291071277,0.377930553,12.3051828,76.6553609,1.2689630773266784e-27
Vijayapura,0.883343513,0.871904394,0.011439119,16.8269911,75.7175387,-3.390494220808386e+26
Kasaragod,3.02140911,0.717632918,2.303776192,12.42219635,75.19044457747756,191930310852608.0
Wayanad,0.815062099,0.354881107,0.460180992,11.71512915,76.12711850740615,-1.0949436087538108e+30
Kozhikode,1.40055533,0.599372106,0.801183224,11.2450558,75.7754716,-3.2684483528137207
Malappuram,1.938819937,0.260316709,1.678503228,11.10684475,76.10995510466662,2.028049092503914e+28
Palakkad,2.435607291,0.550109826,1.885497465,10.78736915,76.47421718925105,-0.0003396962420083
Thrissur,5.136358427,0.761485485,4.374872942,10.5270099,76.214621,-1.0949436087538108e+30
Idukki,0.789197649,0.784504282,0.004693367,9.815478500000001,76.99915994809137,-2.273170714162109e-11
Ernakulam,5.103357738,3.843019755,1.260337983,10.038394700000001,76.50741452482532,-0.0003396962420083
Alappuzha,21.06652893,8.660110439,12.40641849,9.5006651,76.41241428564258,-0.0003396962420083
Kottayam,3.699266664,2.178531176,1.520735488,9.6287383,76.64553257390992,1.2689630773266784e-27
Pathanamthitta,1.224907042,0.233181386,0.991725656,9.278084100000001,76.97374429915658,-2.273170714162109e-11
Kollam,2.689873614,2.697055096,0.007181482,8.9674039,76.85857804538561,1.2689630773266784e-27
Thiruvananthapuram,0.884604088,0.648894373,0.235709715,8.4882267,76.947551,-2.273170714162109e-11
Kannur,3.447996641,1.090489394,2.357507247,11.8763836,75.3737973,191930310852608.0
Leh,0.46868104,0.486956079,0.018275039,34.1642029,77.5848133,-3.299250636613595e+35
Kargil,0.468179461,0.181839586,0.286339875,34.5594418,76.1255982,3.455123826438549e+34
Lakshadweep,17.42627711,13.42627711,4.0,10.3337313,72.92053859204833,-7.1151016527437605e-06
Burhanpur,0.821960718,0.136420671,0.685540047,26.269739549999997,82.99508798317166,11291536130048.0
Morena,3.024035354,0.36602215,2.658013204,26.166667,77.5,-3.299250636613595e+35
Bhind,2.808721208,0.119319241,2.689401967,26.5,78.75,1.4846228940000384e-38
Gwalior,0.637436542,0.480315571,0.157120971,26.2037247,78.1573628,2.0084641505491166e-07
Sheopur,1.417634793,0.185883526,1.231751267,25.6656611,76.6954843,0.0
Shivpuri,0.728096946,0.56739149,0.160705456,25.374121549999998,77.82788660942335,5.087290760466388e-38
Tikamgarh,0.397359874,0.123153605,0.274206269,24.85521045,79.04725459918899,5.401504160270162e+32
Neemuch,1.80618778,1.853193024,0.047005244,24.63055165,75.18289996326385,5.491409652337328e+31
Rewa,0.994456438,0.175699644,0.818756794,24.75608455,81.38105738502682,0.0017688050866127
Satna,0.676054775,0.682682458,0.006627683,24.5,81.0,2.5452363510062e+21
Guna,0.595168951,0.137757934,0.457411017,24.5,77.5,1.7509818462287463e-38
Ashoknagar,1.106305566,0.886532248,0.219773318,24.576189,77.7302895,264183496704.0
Mandsaur,1.435703116,1.47147063,0.035767514,24.2628148,75.38569204340352,6.368714040664707e-30
Singrauli,1.521857949,0.715195816,0.806662133,24.1974432,82.6661453,106.43994140625
Sidhi,2.184368869,0.402325215,1.782043654,24.25,82.0,1.492037278892032e+18
Sagar,0.895085498,0.240442317,0.654643181,23.808307550000002,78.75825398721975,-1028872300658688.0
Damoh,1.37672163,0.183081246,1.193640384,23.75,79.583333,0.3048420250415802
Shajapur,0.571010644,0.057503291,0.513507353,23.41710015,76.60747942907905,1.0224298384114375e-14
Vidisha,0.912677122,0.277215122,0.635462,23.5208128,77.8063184,264183496704.0
Rajgarh,0.937282124,0.464455125,0.472826999,23.87167065,76.77447033719486,-1.508584777088212e+32
Shahdol,0.76725114,0.771098824,0.003847684,23.3002343,81.364771,-6.3593282317293215e-27
Katni,1.074565636,0.544194583,0.530371053,23.7477258,80.40158570175886,-1.0613853017485864e+23
Umaria,0.907342834,0.911756287,0.004413453,23.64318365,80.94190777719564,2.5452363510062e+21
Ratlam,0.690751655,0.102150461,0.588601194,23.50222005,74.9551534052134,10802984648704.0
Bhopal,0.626374883,0.626869321,0.000494438,23.2584857,77.401989,1.7509818462287463e-38
Ujjain,0.752619653,0.044407032,0.708212621,23.1885131,75.7716562,-3.390494220808386e+26
Raisen,1.851820563,0.547154614,1.304665949,23.25,78.083333,
Sehore,1.308962201,0.443833329,0.865128872,23.115004149999997,77.06653558236647,-5.130314093548805e-07
Jabalpur,1.701345896,1.091398785,0.609947111,23.1608938,79.9497702,-6.766819822417006e-17
Dewas,1.037523564,0.405980697,0.631542867,23.0,76.166667,4.268984956626351e+20
Anuppur,0.69532992,0.16785608,0.52747384,23.0346179,81.75102551563023,6.171613848951325e-26
Jhabua,0.409073564,0.130395664,0.2786779,22.88696515,74.72432486327068,5604.03173828125
Dindori,1.451159302,0.207929959,1.243229343,22.9213356,81.08085609483616,2.5452363510062e+21
Narsimhapur,2.214872889,0.238163477,1.976709412,22.916667,79.166667,1.3925465737027064e-26
Dhar,0.815779757,0.487835201,0.327944556,22.578657200000002,75.22586367245644,5.491409652337328e+31
Indore,0.351694942,0.088367293,0.263327649,22.7203616,75.8681996,-3.390494220808386e+26
Mandla,1.57739714,0.911846658,0.665550482,22.687107400000002,80.58163411525186,-1.0613853017485864e+23
Hoshangabad,2.346467017,0.970690301,1.375776716,22.7529598,77.7173261,264183496704.0
Seoni,1.235483561,0.815741223,0.419742338,22.2748109,79.72025222428486,-1.5191126992353363e-24
Alirajpur,0.872416618,0.738663983,0.133752635,22.28595245,74.35456282607561,-329.158203125
Chhindwara,0.626598635,0.382961008,0.243637627,22.20718965,78.79883295930742,-1028872300658688.0
Harda,1.414901297,0.286810929,1.128090368,22.3390401,77.1015504,-5.130314093548805e-07
West Nimar,1.727264926,0.465974584,1.261290342,21.833333,75.5,6.368714040664707e-30
East Nimar,1.041803014,1.03067221,0.011130804,21.75,76.583333,1.0224298384114375e-14
Balaghat,1.159502036,0.086946009,1.072556027,21.8611589,80.3237104768576,992577912832.0
Barwani,0.86377453,0.58771354,0.27606099,22.0333621,74.8978374,10802984648704.0
Agar Malwa,0.53688887,0.338892414,0.197996456,23.935091999999997,76.14495952354727,4.268984956626351e+20
Datia,2.46515688,0.299925165,2.165231715,25.75,78.5,-2.253718000437688e-21
Chhatarpur,1.27766675,0.251215844,1.026450906,24.75,79.75,-1.5191126992353363e-24
Panna,0.90658603,0.165583402,0.741002628,24.5,80.25,992577912832.0
Betul,0.659609051,0.086627039,0.572982012,21.8797472,77.87536507259225,
Niwari,2.347448333,0.208926357,2.138521976,25.3123152,78.66756404982684,1.4846228940000384e-38
Gondiya,1.020830235,0.911616345,0.10921389,21.1456285,80.26838674856234,992577912832.0
Bhandara,2.564278476,0.742932408,1.821346068,21.1225869,79.79450898891825,-1.5191126992353363e-24
Jalgaon,1.523114248,0.504330321,1.018783927,20.84288265,75.52612463784979,6.368714040664707e-30
Wardha,1.65012412,1.005544539,0.644579581,20.82562315,78.61314549522919,-3.0296136169608203e-21
Buldana,0.570331597,0.427298223,0.143033374,20.562845000000003,76.40869861474177,1.0224298384114375e-14
Akola,0.880057177,0.274621796,0.605435381,20.76181225,77.1921156663574,-3.371811127790618e-22
Nashik,0.73876734,0.729292944,0.009474396,20.0112475,73.7902364,5.9106912244656754e-33
Gadchiroli,1.859313068,0.196356508,1.66295656,19.759070350000002,80.16228072580182,992577912832.0
Washim,0.392447344,0.392373985,7.34e-05,20.287417750000003,77.23696550258964,-3.371811127790618e-22
Chandrapur,1.760192182,0.535308039,1.224884143,20.0967555,79.50454752230621,0.3048420250415802
Yavatmal,0.98190471,0.983855741,0.001951031,20.3270469,78.1186870440679,
Jalna,0.710994286,0.649960977,0.061033309,19.918832950000002,75.87085986165867,-3.390494220808386e+26
Ahmadnagar,0.691347983,0.697616588,0.006268605,19.074352,74.7219979,5604.03173828125
Hingoli,1.332394248,1.334570744,0.002176496,19.54311635,77.17394323993398,-3.371811127790618e-22
Nanded,1.586913636,0.436541633,1.150372003,19.09400875,77.48319215130235,1.7509818462287463e-38
Parbhani,3.612234955,0.631474073,2.980760882,19.29019805,76.60264434278307,1.0224298384114375e-14
Pune,1.079353461,1.091416421,0.01206296,18.5213738,73.8545071,5.9106912244656754e-33
Bid,0.847814579,0.573485427,0.274329152,38.89939685,-77.03051222530138,-550883456.0
Mumbai,0.013175876,0.012175873,0.001000003,19.054999,72.8692035,77.27196502685547
Latur,0.559348532,0.350302784,0.209045748,18.355334749999997,76.75489974062862,-1.508584777088212e+32
Osmanabad,0.279521656,0.27922672,0.000294936,18.28224535,76.05881660170444,5.692504172424093e+23
Solapur,1.684216461,0.761165008,0.923051453,17.84990665,75.27632027348457,5.491409652337328e+31
Satara,0.886672906,0.88365251,0.003020396,17.63612885,74.29827807601782,-329.158203125
Ratnagiri,1.554240455,0.978975411,0.575265044,17.282607900000002,73.4569787039826,2.014569460056309e+31
Sangli,0.816411266,0.371511861,0.444899405,16.8502534,74.5948885,-1.9894589448066213e-13
Kolhapur,1.531674907,0.739128811,0.792546096,16.7028412,74.2405329,-329.158203125
Sindhudurg,1.40862314,0.632545644,0.776077496,16.135719299999998,73.65220860183584,5.9106912244656754e-33
Thane,3.51519111,2.261563329,1.253627781,19.1943294,72.9701779,1.3410407007086178e-07
Palghar,2.015211138,1.112239022,0.902972116,19.757249,73.09311986183509,1.3410407007086178e-07
Nandurbar,1.936180535,1.1061674,0.830013135,21.51416215,74.54055132515717,-1.9894589448066213e-13
Amravati,1.132570579,0.452234552,0.680336027,21.15454115,77.64429617998744,264183496704.0
Dhule,0.703409115,0.475721838,0.227687277,21.1305215,74.49006143365727,-1.9894589448066213e-13
Nagpur,1.535057736,1.136796464,0.398261272,21.1498134,79.0820556,5.401504160270162e+32
Aurangabad,0.75855332,0.771925606,0.013372286,24.75,84.5,1.8178185420730196e+22
Raigarh,2.063545631,2.02693479,0.036610841,21.897618,83.3965501,-160074504863744.0
Mumbai Suburban,0.915654785,0.914657543,0.000997242,18.94135,72.8352518,77.27196502685547
Kamjong,0.610853038,0.129302233,0.481550805,27.0529479,90.8278454,4.666446336975646e-24
Senapati,0.710207411,0.0,0.710207411,25.393369749999998,94.15051748246111,-1.9688786135553788e-25
Tamenglong,1.701837152,0.006002374,1.695834778,25.064871099999998,93.5465432111695,0.0
Imphal West,3.366895401,0.042914083,3.323981318,24.757326,93.85847858025147,0.0
Kakching,3.624802358,0.104413907,3.520388451,24.4974827,93.9835543,0.0
Bishnupur,3.487839839,3.486841412,0.000998427,23.0757335,87.3146343,1.1636688041846184e-32
Chandel,0.632996,0.002124825,0.630871175,24.1700959,94.00596727469227,0.0
Churachandpur,1.167264968,0.2279733,0.939291668,24.281310750000003,93.67603860087425,0.0
Imphal East,11.82536756,0.032628883,11.79273868,24.85154025,94.00947957721581,0.0
Jiribam,5.343630309,0.111022838,5.232607471,24.8098254,93.1137269,0.0
Kangpokpi,0.701396511,0.166897675,0.534498836,25.1524326,93.9714932,0.0
Thoubal,23.65742483,0.052982735,23.6044421,24.62525025,94.00835224071031,0.0
Tengnoupal,0.539127806,0.0,0.539127806,24.3847802,94.1472634,0.0
Ukhrul,0.669906789,0.0,0.669906789,25.311073800000003,94.47537752375742,-3.7866876740702584e-18
Noney,2.73207358,0.05487921,2.67719437,24.8625867,93.6237454,0.0
Pherzawl,2.387954764,0.021159458,2.366795306,24.30122565,93.2501037647325,0.0
Ribhoi,1.874505797,0.159366599,1.715139198,25.723641,92.0426338690288,2.4143216702833133e+26
West Khasi Hills,1.198133343,0.006185816,1.191947527,25.5814429,91.08510943564022,-1.7603332397730414e-20
East Jaintia Hills,1.649728103,0.02228155,1.627446553,25.25157605,92.48405006942016,-3.604893936426379e-05
East Khasi Hills,1.226830999,0.077062889,1.14976811,25.40237355,91.83171775361184,-4.517572031175288e+30
South Garo Hills,1.298508569,0.025829871,1.272678698,25.347969,90.56577725964563,-9.998692576118628e-07
West Garo Hills,1.111942423,0.032280391,1.079662032,25.606314249999997,90.21139055037469,6.828032121189887e+37
East Garo Hills,0.691122728,0.004744409,0.686378319,25.61849455,90.63421621777749,4.666446336975646e-24
West Jaintia Hills,1.733990094,0.091584225,1.642405869,25.4425965,92.29882747091773,-1.4108982038241178e-10
South West Khasi Hills,1.814196952,0.045431517,1.768765435,25.330722100000003,91.32173879770662,249108.984375
North Garo Hills,1.505747627,0.0,1.505747627,25.8619841,90.70177048839348,4.666446336975646e-24
South West Garo Hills,3.341603843,0.001275329,3.340328514,25.44463095,89.99696550020556,-7.910227816585391e-38
Kolasib,1.964392845,0.380323566,1.584069279,24.1905469,92.71365945236167,0.0
Aizawl,2.162077627,0.096288881,2.065788746,23.7433532,92.7382756,0.0
Mamit,1.381857077,0.0,1.381857077,23.75590845,92.45173568830637,0.0
Champhai,0.919185436,0.0,0.919185436,23.54437435,93.34795058148227,0.0
Serchhip,1.328475491,0.0,1.328475491,23.3052514,92.8455123321871,0.0
Lunglei,2.6734292,0.01244799,2.66098121,22.95199715,92.63388271315205,0.0
Saiha,2.96841934,0.016731928,2.951687412,22.287672399999998,93.01336001484833,0.0
Lawngtlai,2.814060532,0.021722019,2.792338513,22.3913377,92.73971892338996,0.0
Mon,2.746283665,0.00464644,2.741637225,54.23592075,-4.514766902315387,-420573380608.0
Longleng,2.847941427,0.010400483,2.837540944,26.49031725,94.77214247303138,-0.000172254643985
Mokokchung,1.200974196,0.0,1.200974196,26.4795861,94.51052754768273,-3.7866876740702584e-18
Tuensang,0.650005813,0.0,0.650005813,26.23421065,94.74155301538642,-0.000172254643985
Kiphire,1.066560501,0.0,1.066560501,25.81138215,94.8494968258058,-0.000172254643985
Peren,0.587829484,0.001342531,0.586486953,25.47907705,93.72563659313207,-4.450523006090369e-22
Wokha,2.044958036,0.491956258,1.553001778,26.166667,94.25,-1.9688786135553788e-25
Zunheboto,0.640526895,0.0,0.640526895,26.0,94.5,-3.7866876740702584e-18
Phek,1.968885678,0.002356585,1.966529093,25.75,94.5,-3.7866876740702584e-18
Kohima,0.321623488,0.0,0.321623488,25.6618755,94.1019156,9.34555539843278e+20
Dimapur,1.720970931,0.004473913,1.716497018,25.911744,93.721703,-4.450523006090369e-22
Bhadrak,10.96625941,2.562091316,8.404168094,21.0633288,86.5053731,-4.5843328929534057e-17
Dhenkanal,1.607306371,0.725516959,0.881789412,20.835149350000002,85.60223048169827,2.0536309486831662e-30
Jajapur,12.17977255,0.632633041,11.54713951,20.827789199999998,86.37983525915192,-4.5843328929534057e-17
Subarnapur,3.493045358,1.212807104,2.280238254,20.85357835,83.85291592046968,-4.4098271234940825e-25
Nuapada,1.647190051,0.35257892,1.294611131,20.769099750000002,82.51862845874122,5.7708517967671226e-21
Balangir,1.245116533,0.149789566,1.095326967,20.7502257,83.2499464,75360768.0
Baudh,2.608651472,0.899336006,1.709315466,20.8415619,84.3213321,1.6227772903221194e-08
Cuttack,13.14840204,1.638891263,11.50951078,20.4686,85.8792,2.1269640122466304e+16
Kandhamal,0.573783436,0.032063654,0.541719782,20.13069385,84.07904760590154,3627792.0
Nayagarh,4.840654376,0.392848482,4.447805894,20.1160666,85.11195643843573,-2.571390857539083e-17
Khordha,3.367308168,1.214771584,2.152536584,20.22564715,85.56059465125232,2.0536309486831662e-30
Kalahandi,0.969360733,0.57131064,0.398050093,19.82657565,83.04087019477804,3.880944440200257e-31
Jagatsinghapur,3.152171799,3.230232986,0.078061187,20.2719296,86.15990131192848,-4.603070277369367e-23
Puri,18.91181616,18.5900097,0.32180646,19.8076083,85.8252538,3.1567669072183483e+35
Nabarangapur,0.945022433,0.509433477,0.435588956,19.60962325,82.29876854111501,1.4220555628073452e+18
Rayagada,1.514776096,0.065376151,1.449399945,18.965998550000002,84.19287455014992,1.6227772903221194e-08
Koraput,1.383903026,1.198572767,0.185330259,18.7232023,82.61005964425227,5.7708517967671226e-21
Malkangiri,1.711137196,1.784198785,0.073061589,18.35835435,81.89823748747048,1.492037278892032e+18
Anugul,1.964959616,1.692681852,0.272277764,20.8411255,85.08040066385269,-2.571390857539083e-17
Kendrapara,23.2512603,4.951021358,18.30023894,20.50040085,86.43170622796478,-4.5843328929534057e-17
Ganjam,3.782362954,1.187000815,2.595362139,19.3883898,85.0496786,-2.571390857539083e-17
Gajapati,0.776854184,0.1973271,0.579527084,19.1966026,84.19306336169709,1.6227772903221194e-08
Mayurbhanj,1.289395367,0.185356663,1.104038704,21.915633800000002,86.39618239522102,-4.5843328929534057e-17
Sundargarh,2.122434122,0.304650931,1.817783191,22.25,84.5,1.8178185420730196e+22
Kendujhar,1.491690841,0.370501647,1.121189194,21.5892323,85.66878413736906,3.1567669072183483e+35
Baleshwar,12.64357177,3.878298705,8.765273065,21.51979155,86.87906376156391,1.5319092342372015e-37
Jharsuguda,2.936283719,3.100195768,0.163912049,21.87705125,84.00905063735019,3627792.0
Bargarh,1.309118184,1.345216816,0.036098632,21.347763399999998,83.65768298821486,-4.4098271234940825e-25
Debagarh,2.166747854,2.19247626,0.025728406,21.5934771,84.74330169777767,-2.378722510183617e+20
Sambalpur,1.95082885,1.296871576,0.653957274,21.4706422,83.98368580351055,3627792.0
Puducherry,1.760373358,0.820562264,0.939811094,10.91564885,79.80694879844232,-3.0025842289952146e-17
Karaikal,1.148059852,1.327174677,0.179114825,10.91564885,79.80694879844232,-3.0025842289952146e-17
Mahe,1.6545,1.410606801,0.243893199,11.7021978,75.5364701,-1.203119033774667e-15
Yanam,32.6562,29.67097127,2.98522873,16.7332235,82.2018117763748,1.4220555628073452e+18
Gurdaspur,8.104089132,0.113656362,7.99043277,31.9037264,75.22755867008682,0.0
Hoshiarpur,1.124097105,0.108432652,1.015664453,31.60929415,75.84597544153354,6.917143821716309
Amritsar,2.592469047,0.034259992,2.558209055,31.6611624,74.8821657,0.0
Jalandhar,5.423173348,0.0,5.423173348,31.29223115,75.56788777097373,0.0
Tarn Taran,5.771552223,0.165720765,5.605831458,31.32124525,74.84166874384624,0.0
Rupnagar,8.530840592,0.471251752,8.05958884,31.0917102,76.52897012920695,0.0
Shahid Bhagat Singh Nagar,10.97305613,0.067246598,10.90580953,16.69382715,74.46158814301754,-1.9894589448066213e-13
Fazilka,4.742047502,0.0,4.742047502,30.3198406,74.1217943299535,-1.8373675966385443e-27
Moga,2.73145838,0.0,2.73145838,30.7877554,75.15935898836224,0.0
Ludhiana,4.786805709,0.007473247,4.779332462,30.9090157,75.851601,6.917143821716309
Sahibzada Ajit Singh Nag*,0.112972873,0.010724633,0.10224824,,,
Faridkot,4.441457773,0.0,4.441457773,30.6014507,74.79501756894368,0.0
Fatehgarh Sahib,0.476176498,0.0,0.476176498,30.663404149999998,76.38030001704635,0.0
Sri Muktsar Sahib,2.388794655,0.000403704,2.388390951,30.28671615,74.52622341443077,0.0
Sangrur,2.448919322,0.0,2.448919322,30.135717,75.85333259556887,6.917143821716309
Barnala,1.6671773,0.0,1.6671773,30.3716802,75.5039886995367,0.0
Bathinda,4.083232034,0.018454025,4.064778009,30.17948135,75.04710979185342,0.0
Patiala,4.903037722,0.000974475,4.902063247,30.20927775,76.33972313649818,3.455123826438549e+34
Mansa,2.763547618,0.004390434,2.759157184,29.8764133,75.48895639945275,0.0
Firozpur,8.113945312,0.027828753,8.086116559,30.8753832,74.65254375024789,0.0
Pathankot,2.474306677,1.207937139,1.266369538,32.3021899,75.65894063717977,6.917143821716309
Kapurthala,3.634049856,0.260845183,3.373204673,31.38564755,75.30533042971072,0.0
Churu,0.776519408,0.00062635,0.775893058,28.20477805,74.69129960764752,0.0
Jhunjhunun,0.337331328,0.000184082,0.337147246,28.0,75.5,0.0
Jaisalmer,0.490864938,0.007376732,0.483488206,27.0264162,70.77751197645885,-4153359.75
Sikar,0.420855874,0.0,0.420855874,27.662505799999998,75.02799052644464,0.0
Alwar,0.348076896,0.005601607,0.342475289,27.414004849999998,76.61703869600933,0.0
Jaipur,0.300794996,0.001876113,0.298918883,26.9154576,75.8189817,6.917143821716309
Jodhpur,0.356570143,0.004713804,0.351856339,26.2967719,73.0351433,0.0
Bharatpur,2.342300583,0.003684995,2.338615588,27.024695899999998,77.29201163357268,8.986377360997722e-05
Nagaur,0.318324761,0.004782392,0.313542369,26.9873443,73.73890107316704,-1.0671091055125557e-18
Dausa,0.503371084,0.004574126,0.498796958,26.80486585,76.44374569929329,0.0
Karauli,0.633480722,0.197979321,0.435501401,26.4530971,77.0160460838982,-2.3812975640578862e-20
Dhaulpur,3.16604113,0.385474633,2.780566497,26.65303315,77.62410372608912,-3.299250636613595e+35
Barmer,0.88895207,0.014956261,0.873995809,25.5814853,71.19249222700306,-1.7852937831106962e-18
Sawai Madhopur,1.752297609,0.2640657,1.488231909,26.1137182,76.4240637330536,0.0
Tonk,0.845948588,0.871896612,0.025948024,26.122266000000003,75.82386305157223,6.917143821716309
Pali,0.420034216,0.028374093,0.391660123,25.45522105,73.4193889559074,0.0
Bhilwara,0.795160097,0.045229947,0.74993015,25.48911765,74.33007256947698,-2.621343344340428e-37
Jalor,1.350286581,0.005874951,1.34441163,25.3476006,72.6260916,0.0
Bundi,2.12987866,0.138460405,1.991418255,25.4367659,75.736147085863,6.917143821716309
Kota,2.883610805,0.503964127,2.379646678,25.1737019,75.8574194,-3.390494220808386e+26
Sirohi,0.276456745,0.023800256,0.252656489,24.811404699999997,72.83002573160249,77.27196502685547
Baran,2.698445577,0.273336329,2.425109248,24.92081645,76.6821984669639,-1.508584777088212e+32
Udaipur,0.289382661,0.290943084,0.001560423,24.578721,73.6862571,5.9106912244656754e-33
Jhalawar,1.321031828,0.380898218,0.94013361,24.3132368,76.52210783164801,1.0224298384114375e-14
Dungarpur,0.586707161,0.388930127,0.197777034,23.672305299999998,73.81664192753466,5.9106912244656754e-33
Banswara,0.908342871,0.925230196,0.016887325,23.49150465,74.35021720129201,-329.158203125
Ajmer,0.260510002,0.05695381,0.203556192,26.4691,74.639,0.0
Rajsamand,0.253865414,0.088450607,0.165414807,25.2892459,73.8241077454327,-1.0671091055125557e-18
Chittaurgarh,1.068551638,1.101782041,0.033230403,24.5,74.5,-1.9894589448066213e-13
Ganganagar,6.604699359,0.009686833,6.595012526,23.7497214,91.87663495294915,0.0
Hanumangarh,3.719727987,0.012851681,3.706876306,29.3659533,74.29842896506344,-2.621343344340428e-37
Bikaner,0.693208661,0.008307225,0.684901436,28.0159286,73.3171367,0.0
Pratapgarh,0.34101676,0.239472067,0.101544693,25.75,81.75,2.7084894955228117e+29
North  District,0.608832673,0.545185157,0.063647516,22.516949349999997,114.21359265126003,-8.398673116971622e-07
West District,0.75096604,0.065150406,0.685815634,24.14138,120.67104,0.0
South District,1.694907072,0.18276756,1.512139512,30.682333399999997,34.88242290754138,7.383852418385571e-10
East District,0.934153719,0.10298745,0.831166269,24.8047326,120.9736257,0.0
Adilabad,1.209758847,0.22104424,0.988714607,19.54570375,78.60867589700759,-3.0296136169608203e-21
Hyderabad,0.522269753,0.52199262,0.000277133,17.360589,78.4740613,-3.0296136169608203e-21
Jagitial,1.696878929,0.394204469,1.30267446,18.7908955,78.9118341,5.401504160270162e+32
Jangoan,0.433243486,0.315476097,0.117767389,17.7557919,79.13238961179245,1.3925465737027064e-26
Mulugu,2.920152054,0.667449464,2.25270259,17.7436949,78.62977,-1028872300658688.0
Jogulamba Gadwal,2.863639705,1.45893785,1.404701855,16.0999202,77.73415835077523,264183496704.0
Kamareddy,1.880129371,0.928824065,0.951305306,18.316551,78.05393808043348,
Karimnagar,1.016544336,1.029366402,0.012822066,18.4348122,79.1328042,1.3925465737027064e-26
Khammam,0.560077929,0.458663756,0.101414173,17.172918850000002,80.40575365751027,-1.0613853017485864e+23
Kumuram Bheem Asifabad,1.762360552,0.6274381,1.134922452,19.33381885,79.4219792634756,0.3048420250415802
Mahabubabad,0.514342184,0.26668014,0.247662044,17.7138983,80.04134252767227,-6.766819822417006e-17
Mahabubnagar,0.520380467,0.103573838,0.416806629,16.696568550000002,77.95911462089693,
Mancherial,2.37206874,1.035405769,1.336662971,18.9812967,79.51980961374048,0.3048420250415802
Medak,1.038975884,0.130629891,0.908345993,17.9375095,78.21174498510584,3.585657936921332e+22
Medchal Malkajgiri,0.338814937,0.108188415,0.230626522,17.53498345,78.52463873502381,-3.0296136169608203e-21
Nagarkurnool,2.158570923,0.873611522,1.284959401,16.415762649999998,78.68304333132829,-1028872300658688.0
Nalgonda,1.110181564,1.121014225,0.010832661,16.8579636,79.21749353315548,1.3925465737027064e-26
Nirmal,2.495939442,1.345821289,1.150118153,19.091520950000003,78.39660898429065,-3.0296136169608203e-21
Nizamabad,1.414979667,1.37012829,0.044851377,26.055317950000003,82.99313867937335,11291536130048.0
Peddapalli,3.699961317,1.102681823,2.597279494,18.62065305,79.49501710882896,0.3048420250415802
Rajanna Sircilla,0.563623248,0.564767428,0.00114418,18.452116,78.76455837158737,-1028872300658688.0
Ranga Reddy,0.412349188,0.327322292,0.085026896,17.133395399999998,78.3970978701631,-3.0296136169608203e-21
Sangareddy,1.457531752,1.462695895,0.005164143,17.8684342,77.82271887720601,264183496704.0
Siddipet,0.469975702,0.091876715,0.378098987,18.005585099999998,78.89611304969961,5.401504160270162e+32
Suryapet,1.862321095,0.526090291,1.336230804,17.08001385,79.7925329742427,-1.5191126992353363e-24
Vikarabad,0.271652781,0.187043402,0.084609379,17.2702855,77.74529700637382,264183496704.0
Wanaparthy,5.911067913,0.984745694,4.926322219,16.285294399999998,77.98644727021286,
Warangal Rural,0.420854233,0.3791028,0.041751433,17.9693445,79.6258742,-1.5191126992353363e-24
Warangal Urban,0.487587909,0.354480511,0.133107398,18.0458304,79.611594,0.3048420250415802
Yadadri Bhuvanagiri,0.630428715,0.084363209,0.546065506,17.42819665,79.09049097612106,5.401504160270162e+32
Bhadradri Kothagudem,1.367448139,0.625093908,0.742354231,17.71666325,80.57126094455612,-1.0613853017485864e+23
Jayashankar,5.683848444,0.464301349,5.219547095,18.515987199999998,79.96939659792528,-6.766819822417006e-17
Narayanpet,1.584991037,0.815999907,0.76899113,16.700551750000002,77.61648447017446,1.7509818462287463e-38
North Tripura,1.542869002,0.0,1.542869002,24.092147599999997,92.24512135019847,0.0
Dhalai,1.167627679,0.830802532,0.336825147,23.8253158,91.9732226716333,0.0
Sipahijala,0.601362713,0.003254841,0.598107872,23.53074455,91.30156539030573,0.0
Gomati,2.520489489,0.002801781,2.517687708,23.4987407,91.2999111,0.0
Khowai,0.889218209,0.0,0.889218209,24.04673835,91.62320953646798,0.0
West Tripura,0.612502471,0.0,0.612502471,23.916667,91.5,0.0
South Tripura,0.931395601,0.0,0.931395601,23.5,91.666667,0.0
Unokoti,23.62357053,0.001642557,23.62192797,,,
Amroha,3.77465624,0.02670143,3.74795481,28.90662,78.4707309,-2.253718000437688e-21
Hapur,1.533241589,0.006144137,1.527097452,28.739459150000002,77.83517038273197,5.087290760466388e-38
Bareilly,4.170101962,0.0,4.170101962,28.45823445,79.40474517998476,0.0
Pilibhit,3.104616978,0.672146699,2.432470279,28.4947158,80.1076121626605,0.0
Bulandshahr,4.647089954,0.043817515,4.603272439,28.3874073,77.9743804965303,-0.0222274046391248
Gautam Buddha Nagar,4.671283575,0.002840861,4.668442714,28.3695198,77.59708927492271,-3.299250636613595e+35
Kheri,7.086100462,0.145950617,6.940149845,28.116667,80.716667,3.114640503125489e+24
Budaun,3.899941243,0.043402472,3.856538771,28.116667,78.983333,-1.2316753823961093e-29
Bahraich,4.089125081,0.40923834,3.679886741,27.734382250000003,81.47653998303304,3.468497734346998e+17
Shahjahanpur,4.764711247,0.007833177,4.75687807,27.9128583,79.74762537616267,0.0
Aligarh,1.93292949,0.006094499,1.926834991,27.8761073,78.13581531245276,2.0084641505491166e-07
Kasganj,11.5492555,0.061598326,11.48765717,27.88422635,78.63387553623119,1.4846228940000384e-38
Mathura,4.807455013,0.0,4.807455013,27.633333,77.583333,-3.299250636613595e+35
Shrawasti,7.721578816,0.028878669,7.692700147,19.1558325,72.8403354,77.27196502685547
Sitapur,3.400453125,0.025174919,3.375278206,27.502674749999997,80.833513937751,3.114640503125489e+24
Hathras,1.329597887,0.0,1.329597887,27.5724324,78.11162088731544,-0.0222274046391248
Etah,1.185341675,0.000451786,1.184889889,27.5550357,78.59922214449577,-2.253718000437688e-21
Hardoi,4.375049349,0.028511914,4.346537435,27.336997750000002,80.09982319183257,0.0
Farrukhabad,6.314129092,0.099039455,6.215089637,27.43620025,79.48947783586553,0.0
Firozabad,4.216316792,0.0,4.216316792,27.178397150000002,78.38936471833091,-2.253718000437688e-21
Siddharthnagar,13.40492833,0.022007889,13.38292044,27.251172349999997,82.87165278078035,3.163142317763481e+29
Mainpuri,3.043030701,0.0,3.043030701,27.20930715,79.06253691568566,-1.2316753823961093e-29
Mahrajganj,3.336576576,0.082956237,3.253620339,27.18372625,83.4917300746657,4.6669547199433694e+33
Agra,4.133356464,0.10192976,4.031426704,27.1752554,78.0098161,-0.0222274046391248
Gonda,2.9367264,0.067902889,2.868823511,27.1103723,81.92389055909715,1.0452081352396732e-22
Bara Banki,3.016814521,0.151297728,2.865516793,26.9013312,81.2151601,3.0578459296015893e+27
Kushinagar,4.446808531,0.238357002,4.208451529,26.92426115,83.83244650333145,8.329815801056609e-24
Kannauj,3.637205694,0.028212116,3.608993578,26.9986675,79.69279463324783,0.0
Lucknow,1.996226278,0.00696436,1.989261918,26.8381,80.9346001,-3.0415148498378314e-27
Basti,4.958766648,0.322726847,4.636039801,27.25,83.0,11291536130048.0
Gorakhpur,10.44474452,0.35299449,10.09175003,26.6677977,83.364233378331,0.0017090514302253
Sant Kabir Nagar,6.190358252,0.19440129,5.995956962,26.755082,83.03985451976092,11291536130048.0
Unnao,3.590127624,0.07773585,3.512391774,26.5673264,80.61981926788883,-1.8106033123799133e-38
Etawah,8.738456012,0.23711024,8.501345772,26.715562900000002,79.09170983360895,-1.2316753823961093e-29
Kanpur Nagar,5.234616541,0.360877047,4.873739494,26.4410107,80.26528025980129,7.179728166162303e-12
Auraiya,6.808487542,0.145826885,6.662660657,26.65582145,79.51607566959635,0.0
Faizabad,4.054677701,0.247188018,3.807489683,26.75,82.0,1.0452081352396732e-22
Kanpur Dehat,3.309974643,0.222688571,3.087286072,26.45856395,79.85480520543226,0.0
Deoria,7.998150162,0.303328624,7.694821538,26.423991100000002,83.7638577758042,8.329815801056609e-24
Sultanpur,4.349309327,0.002008734,4.347300593,26.260473150000003,82.23805321467546,1.1566083458449863e+30
Ambedkar Nagar,3.80490503,0.342207082,3.462697948,26.40459405,82.60651543340809,1982256256122880.0
Rae Bareli,5.209973941,0.023735469,5.186238472,26.25,81.25,3.0578459296015893e+27
Jalaun,5.196857221,0.392709551,4.80414767,26.104863299999998,79.39191362484078,0.0
Azamgarh,6.067454778,0.055490347,6.011964431,26.023639000000003,83.02931045602446,11291536130048.0
Mau,4.820667589,0.274573764,4.546093825,26.03909045,83.49858462133619,4.6669547199433694e+33
Fatehpur,6.194245238,0.497518236,5.696727002,25.8348023,80.91545468512774,-3.0415148498378314e-27
Ballia,14.2259764,0.925904877,13.30007152,25.87495945,84.12103292973015,964643782656.0
Jaunpur,4.255610411,0.012266083,4.243344328,25.7967065,82.4888992436659,1982256256122880.0
Jhansi,2.23315222,0.409255286,1.823896934,25.529855,78.65278023546288,1.4846228940000384e-38
Banda,6.835722082,0.522039626,6.313682456,47.1220366,17.7795783,1.9392791426107667e-27
Ghazipur,9.244698358,0.864783267,8.379915091,25.60348625,83.50758884009142,4.6669547199433694e+33
Kaushambi,5.838259619,0.615851316,5.222408303,25.5342456,81.44935673966953,3.468497734346998e+17
Prayagraj,8.8123858,0.784955122,8.027430678,25.4381302,81.8338005,2.7084894955228117e+29
Varanasi,4.599652222,0.883647796,3.716004426,25.3356491,83.0076292,11291536130048.0
Chitrakoot,2.917583682,0.454897641,2.462686041,25.21713895,81.10459272134409,-3.0415148498378314e-27
Chandauli,8.940225734,1.049386239,7.890839495,25.125695049999997,83.24946012689054,75360768.0
Bhadohi,12.0892717,1.079228201,11.0100435,25.424304,82.4883922872558,1982256256122880.0
Mirzapur,4.158753681,1.473547713,2.685205968,24.9316896,82.62801628419575,106.43994140625
Lalitpur,1.497263878,1.506086959,0.008823081,24.6999688,78.51861997577222,-3.0296136169608203e-21
Sonbhadra,2.644815378,2.70977361,0.064958232,24.4148159,83.0637516718631,3.880944440200257e-31
Amethi,2.870234132,0.0,2.870234132,26.346274049999998,81.62520390649198,2.7084894955228117e+29
Ghaziabad,2.474121961,0.0,2.474121961,28.7678881,77.46066723508514,-3.299250636613595e+35
Sambhal,2.052578084,0.044450144,2.00812794,28.6187267,78.5508909140845,-2.253718000437688e-21
Mahoba,0.539052412,0.300865401,0.238187011,25.36159385,79.70601096636403,0.0
Saharanpur,2.705190205,0.020060771,2.685129434,29.9856799,77.50406459058038,-3.299250636613595e+35
Bijnor,3.55139876,0.063788983,3.487609777,29.4074203,78.48214063370122,-2.253718000437688e-21
Muzaffarnagar,1.484914141,0.003804991,1.48110915,29.44969785,77.74293325807088,5.087290760466388e-38
Baghpat,4.30209073,0.0,4.30209073,28.97024845,77.3341671760283,8.986377360997722e-05
Meerut,3.284379909,0.007909836,3.276470073,28.9963296,77.7061915,5.087290760466388e-38
Moradabad,3.838687956,0.0,3.838687956,28.879655300000003,78.80953353954959,1.4846228940000384e-38
Rampur,4.515924008,0.0,4.515924008,28.7934728,79.18458064228349,-1.7167601433325241e-13
Shamli,1.857718186,0.0,1.857718186,29.4976372,77.34722114724295,8.986377360997722e-05
Balrampur,4.434421195,0.059511194,4.374910001,23.628257599999998,83.48109161894322,-160074504863744.0
Hamirpur,6.709509044,0.665130154,6.04437889,25.75,80.0,0.0
Pratapgarh,3.66688256,0.018238429,3.648644131,25.75,81.75,2.7084894955228117e+29
Uttarkashi,0.450692495,0.082932117,0.367760378,30.9635733,78.63625207073864,1.4846228940000384e-38
Chamoli,1.044647093,0.05612071,0.988526383,30.49859555,79.61905372220383,0.0
Dehradun,1.565549733,0.084799737,1.480749996,30.49981565,77.86254573947093,5.087290760466388e-38
Tehri Garhwal,1.072103335,0.531062216,0.541041119,30.465818050000003,78.48373488309977,-2.253718000437688e-21
Rudraprayag,1.443384607,0.040330005,1.403054602,30.49158345,79.03660667712487,-1.2316753823961093e-29
Pithoragarh,0.525534276,0.108953862,0.416580414,30.126497450000002,80.48169891016147,-1.8106033123799133e-38
Bageshwar,0.57268385,0.001914048,0.570769802,30.0087902,79.92801830528973,0.0
Hardwar,2.049997612,0.174571933,1.875425679,29.9384473,78.1452985,2.0084641505491166e-07
Garhwal,1.014386007,0.69594354,0.318442467,30.25,79.333333,-1.7167601433325241e-13
"Almora
",0.649027255,0.000454012,0.648573243,29.70265095,79.43263182057746,0.0
Nainital,0.775389314,0.026065252,0.749324062,29.29499495,79.41625112686134,0.0
Champawat,1.472908997,0.256522301,1.216386696,29.235032,80.10230681491865,0.0
Udham Singh Nagar,2.061876849,0.785339181,1.276537668,29.04783135,79.43261636543795,0.0
South Twenty Four Pargan*,17.30461094,7.77866316,9.52594778,,,
Darjiling,2.014600116,0.096238867,1.918361249,26.75,88.25,5.306464889781126e+22
Jalpaiguri,4.914165317,0.3463879,4.567777417,26.62628045,88.73344851670664,2.3834214149041015e-19
Dakshin Dinajpur,3.854366613,0.005980479,3.848386134,25.385806950000003,88.50633619999999,610504640.0
Maldah,11.77624381,2.419208171,9.357035639,25.09770975,88.12617134920436,-5.464820609659699e+16
Murshidabad,11.63868869,1.234154397,10.40453429,24.1745993,88.2721335,-5.464820609659699e+16
Birbhum,4.557102699,0.073826304,4.483276395,24.06215315,87.69828228934051,1.222997514808732e+22
Nadia,10.67147424,0.744726558,9.926747682,23.4847374,88.55670673333935,-2.5895033218790348e+33
Purba Bardhaman,8.794297365,0.24975544,8.544541925,23.388408849999998,87.96067626428223,-2.081393918422761e-24
Puruliya,0.817297747,0.509342358,0.307955389,23.333333,86.416667,-4.5843328929534057e-17
Bankura,1.837666654,0.435897763,1.401768891,23.132376999999998,87.20819250835955,1.1636688041846184e-32
North Twenty Four Pargan*,18.6648469,7.43925593,11.22559097,,,
Hooghly,9.728119034,0.332437756,9.395681278,22.90994025,88.01208246766723,-2.081393918422761e-24
Medinipur West,7.838525951,0.025978003,7.812547948,22.4207025,87.3269963,1.1636688041846184e-32
Howrah,22.79593904,3.23081923,19.56511981,22.5736296,88.3251045,-5.464820609659699e+16
Kolkata,12.06523072,10.21461453,1.85061619,22.5726459,88.3638953,-5.464820609659699e+16
Purba Medinipur,17.52355839,2.04670632,15.47685207,22.0648451,87.83775864690253,1.222997514808732e+22
Alipurduar,4.056971682,0.017650059,4.039321623,26.4851573,89.5246926,2.1966823258988094e+25
Paschim Bardhaman,2.156244683,0.422563785,1.733680898,23.600297849999997,87.30413008873047,1.1636688041846184e-32
Kalimpong,1.209230259,0.250831636,0.958398623,27.0702869,88.4723676,610504640.0
Jhargram,1.847517048,0.072751655,1.774765393,22.4538505,86.9949477,1.5319092342372015e-37
Cooch Behar,7.872524259,0.371070198,7.501454061,26.2559197,89.42011428381527,2.1966823258988094e+25
Uttar Dinajpur,6.673772935,0.007231452,6.666541483,25.8721428,87.9619860446771,-184461.0
Thiruvallur,2.527745598,2.390831933,0.136913665,13.25376185,80.0562572426388,1.2116217036249707e+21
Chennai,4.645634657,1.072848464,3.572786193,13.0836939,80.270186,400722663309312.0
Krishnagiri,1.019903242,0.155619892,0.86428335,12.5188835,78.2206536,-1.6477638031109233e+34
Tiruvannamalai,1.068840485,0.111931507,0.956908978,12.2343228,79.0761989,-1811.195556640625
Dharmapuri,0.764553583,0.519672081,0.244881502,12.14561305,78.11322171666458,3.993596720133753e+28
Salem,1.698807354,0.995995874,0.70281148,44.9391565,-123.033121,-550883456.0
Erode,1.28966656,0.635350328,0.654316232,11.49052815,77.35052739885393,1.088994361920267e+35
The Nilgiris,0.41168295,0.339577292,0.072105658,11.4,76.7,1.2689630773266784e-27
Namakkal,0.411626715,0.022086664,0.389540051,11.303388949999999,78.1186040211884,3.993596720133753e+28
Perambalur,0.714228873,0.002767237,0.711461636,11.2356695,78.8688353,1.8607862149201948e-18
Coimbatore,0.519629022,0.20279264,0.316836382,11.0018115,76.9628425,-2.273170714162109e-11
Tiruchirappalli,2.799798931,0.030082563,2.769716368,10.804973,78.6870296,1.8607862149201948e-18
Ariyalur,2.450977499,0.08746038,2.363517119,11.1530559,79.25857973608959,1.4195016949402524e-18
Tiruppur,0.635364224,0.084088984,0.55127524,10.791526650000002,77.53254662905589,-3.079760117994861e-33
Thanjavur,6.402076626,0.139785443,6.262291183,10.65903695,79.20142776213416,1.4195016949402524e-18
Karur,1.785192578,0.062914047,1.722278531,10.821767099999999,78.38286541157868,-5340169216.0
Thiruvarur,2.20727188,0.026905003,2.180366877,10.6878621,79.49794371209825,-37159706624.0
Dindigul,0.458409501,0.079067201,0.3793423,10.425689649999999,77.815663999998,1.9539304896287743e-10
Madurai,1.022103303,0.009182441,1.012920862,9.9261153,78.1140983,3.993596720133753e+28
Theni,0.346368373,0.314606199,0.031762174,9.86925575,77.42229738345591,-3.079760117994861e-33
Virudhunagar,1.881503151,0.022872843,1.858630308,9.4926289,77.86318306460637,1.9539304896287743e-10
Thoothukkudi,0.991755053,1.009030229,0.017275176,8.756745200000001,78.07975266019861,3.993596720133753e+28
Kanniyakumari,0.216023548,0.214453049,0.001570499,8.327981399999999,77.35411726732715,1.088994361920267e+35
Viluppuram,2.829205267,0.250109562,2.579095705,12.11669665,79.59892355244544,-37159706624.0
Cuddalore,6.561569456,0.689771711,5.871797745,11.52020705,79.33963564750636,1.4195016949402524e-18
Pudukkottai,0.699430563,0.085746267,0.613684296,10.5,78.833333,1.8607862149201948e-18
Sivaganga,1.984480953,0.051279472,1.933201481,9.8486881,78.4870461,-5340169216.0
Ramanathapuram,3.269130248,1.290662657,1.978467591,9.5205576,78.51846345155016,-5340169216.0
Nagapattinam,12.49792911,4.028133598,8.469795512,10.60262025,79.7619347994777,-3.0025842289952146e-17
Kallakurichi,1.726935239,0.016931089,1.71000415,11.79468465,79.03882106200822,-1811.195556640625
Tenkasi,0.457961738,0.050554592,0.407407146,8.9560546,77.3058504,1.088994361920267e+35
Tirunelveli,0.61478851,0.622191008,0.007402498,8.7012203,77.5792694,-3.079760117994861e-33
Vellore,0.459638695,0.021681234,0.437957461,12.9021849,79.06110398623842,-1811.195556640625
Ranipet,1.50587668,0.142824545,1.363052135,12.9292452,79.3321712,1.4195016949402524e-18
Tirupathur,0.890009742,0.007876167,0.882133575,12.490898,78.564709,-5340169216.0
Kancheepuram,2.694220448,0.935998334,1.758222114,12.87960515,79.70427615297989,-3.0025842289952146e-17
Chengalpattu,4.817890104,2.065380723,2.752509381,12.6840886,79.9836371,1.2116217036249707e+21
